t lat lon alt heading roll pitch
1.52286e+09 33.7787505 -84.4023408 287.9 0 0 0
1.5229e+09 33.7787508 -84.4023405 287.8 -0.59733 0.01271 -0.067806
1.5229e+09 33.7787512 -84.40234 287.8 -0.59645 0.012489 -0.067779
0.34618 33.7787515 -84.4023397 287.7 -0.59666 0.012746 -0.067893
0.93229 33.7787522 -84.4023393 287.6 -0.59606 0.012741 -0.067599
1.3327 33.7787523 -84.4023392 287.6 -0.59594 0.01268 -0.067612
1.9345 33.7787523 -84.4023392 287.5 -0.59649 0.01266 -0.067887
2.3381 33.7787527 -84.4023395 287.5 -0.59646 0.012714 -0.068037
2.9392 33.778753 -84.4023398 287.5 -0.59693 0.012798 -0.068105
3.3391 33.7787535 -84.4023402 287.5 -0.59648 0.012929 -0.067907
3.9409 33.778754 -84.4023405 287.6 -0.59636 0.01252 -0.067827
4.3423 33.7787543 -84.402341 287.6 -0.5959 0.012667 -0.068066
4.9447 33.778755 -84.4023417 287.6 -0.59586 0.012594 -0.067829
5.3446 33.7787555 -84.4023422 287.5 -0.5962 0.01283 -0.067951
5.9485 33.7787562 -84.4023425 287.5 -0.59468 0.012856 -0.067678
6.3462 33.7787567 -84.402343 287.4 -0.59592 0.01314 -0.067977
6.9475 33.7787577 -84.402344 287.3 -0.59697 0.013496 -0.070378
7.349 33.7787581 -84.4023443 287.1 -0.59604 -0.00013035 0.059931
7.9495 33.7787582 -84.4023445 287.1 -0.60217 -0.013658 -0.0049784
8.3514 33.778758 -84.4023445 287.3 -0.59656 0.0035861 -0.017863
8.9523 33.7787577 -84.4023463 287.5 -0.58964 -0.2295 -0.063712
9.3521 33.7787586 -84.4023542 287.6 -0.57517 -0.25252 -0.15553
9.9559 33.7787629 -84.4023721 288 -0.57311 -0.27543 -0.16553
10.355 33.7787675 -84.4023881 287.9 -0.70234 -0.41846 -0.048467
10.956 33.7787663 -84.402417 287.7 -0.96431 -0.4599 -0.030881
11.357 33.7787618 -84.4024345 287.2 -1.1329 0.07813 0.21745
11.958 33.7787548 -84.4024458 287.1 -1.1667 0.068107 -0.15665
12.363 33.7787524 -84.4024563 287.3 -1.1646 0.040706 -0.223
12.959 33.77875 -84.4024747 287.3 -1.325 -0.064032 -0.087297
13.359 33.7787461 -84.402487 287.2 -1.5988 -0.1323 0.0014225
13.966 33.778743 -84.4024955 287.1 -1.723 0.073741 0.37888
14.362 33.7787419 -84.4024946 287.1 -1.7482 0.11147 0.082745
14.963 33.7787412 -84.4024951 287.4 -1.7605 0.054531 0.050719
15.371 33.7787409 -84.4024945 287.4 -1.7511 0.013361 0.016508
15.97 33.7787402 -84.402493 287.5 -1.7507 0.093229 -0.036867
16.373 33.7787383 -84.4024942 287.6 -1.7365 -0.12282 -0.25245
16.974 33.7787292 -84.4025069 287.4 -1.7386 -0.057031 -0.37659
17.375 33.7787204 -84.4025215 287.3 -1.7413 -0.064085 -0.34753
17.977 33.778706 -84.4025526 287.3 -1.765 0.10081 -0.31252
18.379 33.7786993 -84.4025777 287.4 -1.7831 0.21175 -0.24831
18.978 33.7786905 -84.4026195 287.4 -1.753 0.041608 -0.20321
19.378 33.7786872 -84.4026489 287.5 -1.7696 0.30573 -0.13626
19.98 33.7786863 -84.4026883 287.5 -1.7389 -0.011275 0.37116
20.381 33.7786857 -84.4027053 287.6 -1.7563 -0.097278 0.42026
20.986 33.7786836 -84.4027188 287.1 -1.74 0.060643 0.45811
21.389 33.7786838 -84.40272 286.6 -1.7384 0.068393 0.2754
21.989 33.7786832 -84.4027204 286.2 -1.754 -0.0026915 0.075155
22.393 33.7786826 -84.4027196 287 -1.7494 0.0027391 0.094697
22.993 33.778682 -84.4027188 287.5 -1.7477 0.041864 0.038588
23.394 33.7786818 -84.4027186 287.4 -1.7478 0.022045 0.066119
23.996 33.7786815 -84.4027184 287.2 -1.7487 0.020927 0.079657
24.399 33.7786816 -84.4027181 287.1 -1.7508 0.020086 0.087528
25.002 33.7786816 -84.4027148 287.1 -1.7555 0.091401 0.22459
25.405 33.7786825 -84.4027086 287.1 -1.7598 0.048381 0.2491
26.166 33.7786854 -84.4026933 287.2 -1.7404 0.18539 0.34268
26.4 33.7786886 -84.4026795 287.1 -1.7577 0.18275 0.24352
27.002 33.7786949 -84.4026555 287 -1.7593 0.15392 0.25059
27.404 33.7787001 -84.4026389 287.1 -1.7957 0.16522 0.07695
28.006 33.7787068 -84.4026155 287.3 -1.8082 -0.0028642 0.12837
28.407 33.7787111 -84.4025995 287.6 -1.8087 0.01783 0.12074
29.006 33.7787178 -84.4025757 288.2 -1.7966 0.0815 0.18589
29.406 33.7787218 -84.40256 288.4 -1.81 0.17641 0.10406
30.01 33.7787285 -84.4025363 288.4 -1.8065 0.17464 0.16381
30.409 33.778733 -84.4025199 288.4 -1.8195 0.16342 0.13099
31.009 33.7787397 -84.4024982 288.3 -1.8374 0.11543 0.0012679
31.41 33.7787442 -84.4024853 288.6 -1.8657 0.10192 -0.17773
32.011 33.7787484 -84.4024738 288.7 -1.8491 -0.075412 -0.13364
32.413 33.7787496 -84.4024693 288.5 -1.8722 0.061529 -0.19347
33.012 33.7787499 -84.4024672 288.2 -1.884 0.10581 -0.13823
35.392 33.7787496 -84.4024648 287.7 -1.8798 0.14056 0.03129
35.418 33.7787496 -84.4024643 287.6 -1.878 0.13115 0.03866
36.021 33.7787481 -84.4024638 287.4 -1.864 0.0010635 -0.091507
36.423 33.7787452 -84.4024645 287.3 -1.8102 -0.025152 -0.13863
37.022 33.778738 -84.4024673 287.1 -1.7119 0.058276 -0.048326
37.424 33.7787335 -84.4024691 287 -1.63 0.098183 -0.0098332
38.032 33.7787292 -84.4024706 287.2 -1.5063 0.17189 0.039138
38.43 33.7787285 -84.4024708 287.2 -1.4345 0.20651 -0.0010528
40.831 33.7787287 -84.4024709 286.9 -1.3988 0.15166 -0.010663
40.831 33.7787285 -84.4024708 286.8 -1.3359 0.069123 -0.02087
41.036 33.7787283 -84.4024708 286.9 -1.3347 0.079193 0.0085989
41.437 33.7787273 -84.402472 286.9 -1.3172 -0.046967 -0.066918
42.038 33.7787225 -84.402478 287 -1.2274 -0.065652 -0.053255
42.442 33.7787186 -84.4024837 286.9 -1.1433 0.040305 -0.025637
43.041 33.7787134 -84.4024918 287 -1.0029 0.057985 -0.0048798
43.44 33.7787095 -84.4024976 286.9 -0.92389 0.048076 0.017564
44.042 33.7787062 -84.4025031 286.9 -0.7896 0.24531 0.035355
44.448 33.7787055 -84.4025037 287.1 -0.68608 0.21208 0.0037769
46.968 33.7787063 -84.4025027 287.4 -0.53386 0.014169 -0.028309
47.053 33.7787065 -84.4025031 287.5 -0.53658 0.027368 -0.02361
47.452 33.7787062 -84.4025041 287.5 -0.54664 -0.080364 -0.010142
48.053 33.7787046 -84.4025084 287.7 -0.65356 -0.037877 -0.0053157
48.453 33.7787036 -84.4025116 287.8 -0.75136 0.09253 0.016009
51.342 33.7787026 -84.4025125 287.9 -0.91964 0.14931 0.026402
51.343 33.7787034 -84.4025122 288.1 -1.0332 0.027927 -6.825e-05
51.47 33.7787035 -84.4025122 288.3 -1.0335 -0.00010621 0.001391
52.075 33.7787022 -84.4025139 288.8 -1.0401 -0.12951 -0.018528
52.474 33.7786995 -84.4025169 288.8 -1.0504 -0.13561 -0.01356
53.075 33.7786938 -84.4025227 288.8 -1.0665 0.00099532 0.0093481
53.476 33.77869 -84.402526 288.9 -1.0727 0.039945 0.0053972
54.077 33.7786871 -84.4025281 288.9 -1.0841 0.16931 0.013859
56.76 33.7786868 -84.4025276 289.1 -1.1041 0.13738 -0.0087154
56.76 33.7786871 -84.4025276 289.6 -1.1041 0.13738 -0.0087154
56.76 33.7786871 -84.402528 289.6 -1.1117 0.026787 0.010825
57.082 33.778687 -84.4025279 289.6 -1.1088 -0.046125 0.047228
57.483 33.7786855 -84.4025276 289.5 -1.1458 -0.1553 0.099803
58.084 33.778681 -84.4025278 289.2 -1.1409 -0.060139 0.036546
58.488 33.7786772 -84.4025281 289.1 -1.1304 0.0043879 -0.023122
59.094 33.7786754 -84.4025281 289.1 -1.1236 0.087344 -0.033966
61.565 33.7786744 -84.4025287 289.3 -1.1192 0.049942 0.044738
61.565 33.7786742 -84.4025288 289.3 -1.1213 0.029263 0.059315
62.107 33.7786733 -84.4025303 289.4 -1.1088 -0.081474 0.010327
62.511 33.7786715 -84.4025335 289.5 -1.0627 -0.14289 -0.01915
63.116 33.7786657 -84.402543 289.4 -0.94366 -0.10836 0.0024683
63.514 33.7786616 -84.4025502 289.3 -0.86282 0.0067284 0.052489
64.115 33.7786558 -84.4025605 289.2 -0.72357 0.0097365 0.064668
64.521 33.7786518 -84.4025673 289.2 -0.6288 0.10996 0.040635
65.118 33.7786476 -84.4025735 289 -0.51247 0.25236 -0.02203
65.523 33.7786466 -84.402574 289.1 -0.43343 0.26393 -0.037562
68.085 33.7786457 -84.4025733 288.7 -0.28102 0.088346 -0.046862
68.125 33.7786461 -84.4025735 288.6 -0.2779 0.078501 -0.01645
68.527 33.7786464 -84.4025744 288.6 -0.27427 -0.01561 -0.055538
69.127 33.7786482 -84.40258 288.6 -0.22868 -0.12011 -0.089491
69.528 33.7786499 -84.4025862 288.6 -0.17761 -0.034716 -0.025906
70.132 33.7786524 -84.4025954 288.6 -0.09362 0.0064058 0.0049681
70.532 33.7786538 -84.4026005 288.6 -0.035688 0.089915 0.02955
71.132 33.7786538 -84.4026043 288.6 0.048655 0.23229 0.019669
73.725 33.7786526 -84.4026046 288.1 0.16504 0.034521 -0.051776
73.726 33.7786531 -84.4026046 288.1 0.1696 0.060566 0.0040632
74.138 33.7786544 -84.4026037 288 0.1522 0.11656 -0.26704
76.658 33.7786576 -84.4026014 287.9 -0.0015998 0.0023524 -0.023632
76.659 33.7786576 -84.4026014 287.9 -0.0081275 -0.00092327 -0.035782
77.151 33.7786582 -84.4026027 287.8 0.0055376 -0.10099 -0.049668
77.552 33.7786589 -84.4026062 287.8 0.077802 -0.19586 -0.035831
78.154 33.7786613 -84.4026156 287.8 0.23386 -0.065909 0.040044
78.556 33.7786622 -84.4026219 287.9 0.35499 -0.034403 0.040255
79.163 33.778663 -84.4026311 287.7 0.53632 0.092473 -0.039504
79.558 33.7786624 -84.402634 287.6 0.65652 0.14124 -0.12344
82.34 33.7786599 -84.4026341 286.9 0.83896 0.029682 -0.11104
82.341 33.7786603 -84.4026339 286.6 0.9405 0.0053798 -0.015662
82.563 33.7786606 -84.402634 286.5 0.94126 -0.030198 0.0014052
83.164 33.7786626 -84.4026368 286.4 0.93881 -0.17024 0.069789
83.571 33.7786655 -84.4026407 286.3 0.97439 -0.1225 0.082495
84.168 33.7786701 -84.4026476 286.6 1.0297 -0.018798 0.064241
84.57 33.7786721 -84.4026523 286.6 1.0588 0.041937 0.025898
85.172 33.7786731 -84.4026564 286.6 1.1045 0.15146 -0.054714
87.736 33.7786717 -84.4026581 286.2 1.1673 0.028222 0.0037707
87.736 33.7786717 -84.4026581 286.1 1.1637 0.029886 0.0033403
88.182 33.7786727 -84.402658 286.1 1.1707 -0.077578 -0.0094625
88.586 33.7786753 -84.4026581 286 1.2096 -0.16961 -0.016502
89.189 33.7786832 -84.4026592 285.8 1.2807 -0.062881 0.020348
89.591 33.7786883 -84.4026603 285.7 1.344 0.0031753 0.030671
90.203 33.7786956 -84.4026622 285.7 1.4428 0.06835 0.011897
90.595 33.7786979 -84.402663 285.6 1.5115 0.17143 -0.0090717
93.396 33.778698 -84.4026641 285.5 1.6102 0.078357 -0.027208
93.396 33.7786975 -84.4026648 285.7 1.6102 0.078357 -0.027208
93.396 33.7786975 -84.4026645 285.7 1.6584 -0.024059 0.014403
93.612 33.7786975 -84.4026642 285.7 1.6546 -0.014524 0.0044644
94.212 33.7786975 -84.402664 285.8 1.6057 -0.033203 0.003358
94.614 33.7786974 -84.4026638 285.9 1.5243 -0.031424 0.0089303
97.09 33.7786977 -84.4026627 286.9 1.3782 -0.025949 0.0521
97.223 33.7786979 -84.4026627 287.2 1.3786 -0.016519 0.078169
99.783 33.7786983 -84.4026644 287.5 1.1728 -0.029481 0.064496
99.784 33.7786984 -84.4026642 287.6 1.1762 -0.0052193 0.076307
100.24 33.7786996 -84.4026641 287.5 1.169 -0.12635 0.065649
100.65 33.7787025 -84.4026645 287.3 1.1784 -0.17217 0.071951
101.25 33.7787101 -84.4026663 287.1 1.2039 -0.054063 0.095201
101.65 33.7787151 -84.4026678 286.9 1.2192 0.012491 0.099596
102.25 33.7787208 -84.4026694 286.6 1.2526 0.15406 0.11086
102.65 33.7787222 -84.4026703 286.6 1.2661 0.18155 0.09774
105.24 33.7787227 -84.4026717 285.5 1.2904 0.072037 0.062515
105.26 33.778723 -84.4026712 285.2 1.2922 0.090582 0.092008
105.66 33.7787238 -84.4026706 285 1.2896 0.030121 0.018514
106.27 33.7787282 -84.4026685 284.9 1.3111 -0.022339 -0.017733
106.97 33.778732 -84.4026671 284.8 1.3233 -0.011065 -0.013279
107.28 33.7787371 -84.4026639 284.8 1.3609 0.092817 0.050413
107.68 33.7787386 -84.4026627 284.8 1.3723 0.10637 0.15027
110.35 33.7787392 -84.4026626 285.1 1.4202 -0.0095021 0.049914
110.35 33.7787391 -84.4026631 285 1.408 -0.017651 -0.063165
110.69 33.7787391 -84.4026627 285 1.3959 -0.073321 -0.070992
111.29 33.7787427 -84.4026599 284.9 1.4977 -0.097665 -0.069791
111.7 33.7787459 -84.4026566 284.9 1.6486 -0.032002 -0.074629
112.3 33.7787515 -84.4026507 284.8 1.8478 -0.13136 0.10936
112.7 33.7787561 -84.4026479 284.5 2.0196 0.032825 0.04364
113.3 33.7787586 -84.4026466 284.4 2.2486 0.09955 -0.017161
115.94 33.7787586 -84.4026472 284.5 2.4026 0.025795 -0.017365
115.94 33.7787588 -84.402647 284.7 2.5292 -0.037611 -0.014769
115.94 33.7787591 -84.4026467 284.9 2.5253 -0.03136 -0.035444
116.31 33.7787602 -84.4026449 285 2.5258 -0.25173 0.028863
116.71 33.7787633 -84.4026409 285 2.5013 -0.073596 -0.0055634
119.15 33.7787633 -84.4026386 285.4 2.3836 -0.016279 0.034258
119.33 33.7787633 -84.4026385 285.5 2.3822 -0.052603 0.044278
119.73 33.7787642 -84.4026373 285.6 2.3855 -0.18585 0.05284
120.33 33.7787687 -84.402632 285.7 2.4159 -0.18793 0.08296
120.73 33.7787726 -84.4026278 285.7 2.4566 -0.073119 0.048646
121.33 33.7787782 -84.4026216 285.8 2.5054 -0.03591 0.069801
121.74 33.778781 -84.4026183 285.8 2.5404 0.084418 0.044725
122.34 33.7787825 -84.4026173 286 2.5903 0.12997 0.018704
124.77 33.7787819 -84.4026162 286.3 2.6384 0.021154 0.098124
124.77 33.7787819 -84.4026159 286.4 2.6386 0.038109 0.090159
125.34 33.778782 -84.4026142 286.4 2.6492 -0.082146 0.017286
125.74 33.7787824 -84.4026094 286.4 2.7228 -0.080058 -0.07983
126.34 33.7787821 -84.4025988 286.4 2.8481 -0.015574 -0.031532
126.74 33.7787814 -84.4025915 286.4 2.9445 0.036813 0.0095715
127.35 33.7787802 -84.4025808 286.4 3.094 0.018023 0.02228
127.75 33.7787796 -84.4025748 286.4 -3.0889 0.1347 0.038796
128.35 33.7787788 -84.4025714 286.4 -2.9511 0.22994 0.010366
130.93 33.7787783 -84.4025718 286.5 -2.8413 0.12146 0.026709
130.93 33.7787779 -84.4025718 286.8 -2.7648 0.034521 0.016758
130.93 33.778778 -84.4025717 286.8 -2.7651 0.054517 -0.0073782
131.36 33.7787779 -84.4025709 286.8 -2.7679 -0.015803 0.00049979
131.75 33.7787774 -84.4025684 286.6 -2.762 -0.084659 0.0035077
132.36 33.7787759 -84.4025616 286.2 -2.7428 0.032517 -0.01508
132.76 33.778775 -84.4025578 286 -2.7259 0.13566 0.00022907
133.36 33.7787745 -84.4025562 286.1 -2.7032 0.17914 -0.023597
135.8 33.7787743 -84.4025561 286.4 -2.6731 0.093935 -0.010701
135.8 33.7787742 -84.4025559 286.4 -2.6719 0.086525 -0.0028341
136.37 33.7787734 -84.4025544 286.5 -2.6713 -0.034392 0.00096752
136.77 33.778772 -84.4025511 286.6 -2.6675 -0.0609 -0.021024
137.38 33.7787692 -84.4025449 286.7 -2.6565 0.059553 -0.028935
137.77 33.7787677 -84.402542 286.7 -2.6497 0.15348 -0.021042
138.37 33.7787667 -84.4025411 286.7 -2.6373 0.18883 -0.014355
140.69 33.7787661 -84.4025417 286.9 -2.6227 0.075739 -0.010317
140.78 33.7787662 -84.4025416 286.9 -2.627 0.075936 -0.02766
141.38 33.7787662 -84.4025395 286.9 -2.6607 -0.054549 0.061027
141.78 33.7787663 -84.4025355 287 -2.7323 -0.031979 0.059309
142.38 33.7787669 -84.4025293 287 -2.896 0.11312 -0.0147
142.79 33.7787668 -84.4025272 287 -3.0059 0.20113 -0.020415
145.42 33.778766 -84.4025271 287.1 3.0656 0.077441 0.028622
145.42 33.7787659 -84.4025273 286.9 3.0681 0.064949 0.064048
145.79 33.7787658 -84.402527 286.9 3.0667 -0.0078254 0.04454
146.4 33.7787655 -84.4025221 286.8 3.1163 -0.14888 0.050803
146.79 33.7787654 -84.4025155 286.8 -3.1069 -0.10394 0.050144
147.4 33.7787648 -84.402505 286.8 -3.0019 0.04317 0.048671
147.8 33.7787642 -84.4024981 286.8 -2.9302 0.035522 0.055581
148.4 33.7787632 -84.40249 286.8 -2.8251 0.19827 0.032537
148.8 33.778763 -84.4024886 286.7 -2.7559 0.20731 0.02719
151.43 33.7787624 -84.4024888 286.8 -2.6221 0.089288 0.017974
151.43 33.7787628 -84.4024888 286.9 -2.6221 0.080927 0.0052536
151.81 33.7787627 -84.4024884 286.8 -2.6192 0.0023367 -0.020477
152.42 33.7787608 -84.4024852 286.7 -2.5497 -0.093574 -0.086151
152.81 33.7787578 -84.4024811 286.7 -2.4749 -0.019019 -0.070949
153.42 33.7787522 -84.4024756 286.6 -2.3396 0.069499 -0.043505
153.82 33.7787494 -84.4024735 286.5 -2.2506 0.17774 -0.033937
154.42 33.7787482 -84.4024732 286.5 -2.1136 0.16362 -0.056556
156.77 33.7787482 -84.4024752 286.1 -1.992 0.023234 0.035882
156.82 33.7787485 -84.4024752 286.1 -1.9864 0.039108 0.00050011
157.42 33.7787474 -84.4024749 286.2 -1.9616 -0.12306 -0.072786
157.83 33.7787444 -84.402474 286 -1.903 -0.18081 -0.10119
158.43 33.7787375 -84.4024732 285.8 -1.7796 0.00053215 -0.057657
158.83 33.7787329 -84.4024734 285.6 -1.6899 0.0018766 -0.031344
159.44 33.7787292 -84.4024732 285.6 -1.5457 0.15873 -0.018101
159.84 33.7787291 -84.4024735 285.6 -1.4489 0.14325 -0.04398
160.44 33.7787312 -84.4024693 285.5 -1.3905 0.1547 0.27504
160.84 33.7787325 -84.4024613 285.5 -1.4054 0.042228 0.27492
161.45 33.7787334 -84.4024431 285.5 -1.4101 0.059876 0.22694
161.85 33.7787337 -84.4024278 285.5 -1.4082 0.008121 0.24521
162.45 33.7787332 -84.4024037 285.6 -1.3873 0.0035416 -0.14676
162.85 33.7787337 -84.402395 285.7 -1.0881 -0.088644 -0.31243
163.45 33.7787344 -84.4023868 285.6 -0.67151 0.10457 0.20063
163.85 33.7787331 -84.4023791 285.6 -0.65851 0.043833 0.1934
164.46 33.7787283 -84.402367 285.3 -0.65867 -0.063491 0.19876
164.86 33.7787232 -84.4023597 285.1 -0.65688 -0.049937 -0.1981
165.46 33.778723 -84.4023578 284.7 -0.64914 -0.071003 -0.14559
165.86 33.7787231 -84.4023579 284.4 -0.666 0.044801 0.057075
166.47 33.7787239 -84.4023574 284.3 -0.67164 -0.025576 0.035919
166.87 33.7787238 -84.402357 284.1 -0.6564 -0.034419 0.0057364
167.47 33.7787236 -84.402356 284 -0.64686 0.031724 -0.022663
167.87 33.7787287 -84.4023528 284 -0.54762 0.019279 -0.0012192
168.48 33.7787278 -84.4023522 284.2 -0.56528 0.016118 -0.01875
168.87 33.778727 -84.4023515 284.4 -0.578 0.016039 -0.019134
169.47 33.778726 -84.402351 284.6 -0.59374 0.015752 -0.019141
