t lat lon alt heading roll pitch
1.52303e+09 33.9333077 -84.5390308 330.9 -1.2105 0.042873 -0.03076
1.523e+09 33.9333075 -84.5390308 330.8 -1.2111 0.042829 -0.03086
0.056317 33.9333073 -84.5390308 330.6 -1.2106 0.04294 -0.030934
0.65762 33.9333072 -84.5390308 330.5 -1.2105 0.042883 -0.030696
1.0584 33.9333072 -84.5390308 330.4 -1.2109 0.042754 -0.030512
1.6605 33.933307 -84.5390307 330.3 -1.2111 0.04282 -0.030736
2.0641 33.9333068 -84.5390307 330.2 -1.2104 0.042985 -0.030745
2.6641 33.9333067 -84.5390307 330.1 -1.2096 0.04299 -0.030847
3.065 33.9333067 -84.5390307 330 -1.2095 0.043061 -0.030816
3.6682 33.9333067 -84.5390305 330 -1.2096 0.04297 -0.03074
4.0659 33.9333065 -84.5390305 329.9 -1.21 0.043113 -0.030652
4.6695 33.9333065 -84.5390305 329.8 -1.2099 0.043 -0.0307
5.0697 33.9333063 -84.5390307 329.8 -1.2101 0.043079 -0.030656
5.6706 33.9333063 -84.5390305 329.8 -1.21 0.042672 -0.030583
6.072 33.9333062 -84.5390305 329.8 -1.21 0.042573 -0.0308
6.6726 33.933306 -84.5390303 329.8 -1.2098 0.042725 -0.030809
7.0725 33.9333058 -84.53903 329.8 -1.2109 0.042931 -0.030541
7.6782 33.9333055 -84.5390295 329.9 -1.2104 0.04278 -0.030664
8.0756 33.9333053 -84.5390293 329.9 -1.2108 0.042745 -0.03074
8.6771 33.9333048 -84.5390288 330 -1.2108 0.042839 -0.03078
9.0779 33.9333043 -84.5390283 330 -1.211 0.042903 -0.030689
9.6786 33.9333037 -84.5390277 330.2 -1.2112 0.042842 -0.030612
10.079 33.9333032 -84.5390272 330.2 -1.2116 0.042657 -0.030708
10.682 33.9333025 -84.5390265 330.4 -1.2116 0.042952 -0.030864
11.08 33.933302 -84.5390262 330.4 -1.2109 0.04323 -0.030606
11.681 33.9333013 -84.5390257 330.5 -1.2108 0.042959 -0.03064
12.081 33.9333007 -84.5390255 330.6 -1.2106 0.042879 -0.030744
12.682 33.9332997 -84.5390252 330.6 -1.212 0.043189 -0.030683
13.083 33.9332992 -84.539025 330.7 -1.2123 0.042816 -0.030699
13.686 33.9332987 -84.5390248 330.8 -1.2124 0.042913 -0.030957
14.087 33.9332983 -84.5390247 330.8 -1.212 0.042596 -0.03111
14.688 33.9332978 -84.5390243 331 -1.2126 0.042852 -0.030882
15.088 33.9332975 -84.5390242 331 -1.2121 0.042911 -0.030865
15.689 33.9332972 -84.5390237 331.2 -1.213 0.043056 -0.030589
16.09 33.933297 -84.5390235 331.3 -1.2126 0.043119 -0.030685
16.694 33.9332967 -84.5390232 331.5 -1.2127 0.043021 -0.030834
17.091 33.9332965 -84.5390228 331.6 -1.2128 0.043101 -0.030986
17.692 33.9332962 -84.5390223 331.8 -1.213 0.042816 -0.030654
18.097 33.9332958 -84.5390218 331.9 -1.214 0.043062 -0.030727
18.693 33.9332953 -84.5390213 332.1 -1.2124 0.043035 -0.030713
19.096 33.933295 -84.5390212 332.2 -1.2126 0.042883 -0.03075
19.694 33.9332947 -84.5390207 332.4 -1.2133 0.043303 -0.030866
20.095 33.9332943 -84.5390205 332.5 -1.2124 0.043119 -0.030665
20.697 33.9332943 -84.5390203 332.6 -1.2117 0.043048 -0.03061
21.096 33.9332943 -84.5390203 332.6 -1.2121 0.043008 -0.030646
21.699 33.9332943 -84.5390205 332.6 -1.2122 0.043056 -0.030516
22.097 33.9332943 -84.5390207 332.6 -1.2134 0.043178 -0.030715
22.698 33.9332943 -84.5390208 332.5 -1.2133 0.043334 -0.030793
23.099 33.9332943 -84.539021 332.5 -1.2136 0.043188 -0.030648
23.7 33.9332943 -84.539021 332.5 -1.213 0.042972 -0.030684
24.103 33.9332942 -84.539021 332.4 -1.2121 0.043036 -0.030802
24.7 33.9332942 -84.5390212 332.4 -1.2127 0.042945 -0.031014
25.102 33.9332938 -84.5390212 332.4 -1.2131 0.04276 -0.030859
25.706 33.9332938 -84.5390213 332.3 -1.2123 0.042955 -0.030574
26.103 33.9332937 -84.5390215 332.3 -1.2118 0.042819 -0.030757
26.706 33.9332937 -84.5390217 332.2 -1.2116 0.042892 -0.030591
27.105 33.9332937 -84.5390217 332.2 -1.2113 0.042904 -0.030617
27.708 33.9332937 -84.539022 332.1 -1.2108 0.042984 -0.030968
28.109 33.9332938 -84.5390223 332 -1.2113 0.042898 -0.030556
28.709 33.933294 -84.5390227 331.9 -1.2108 0.042954 -0.030613
29.11 33.9332942 -84.5390228 331.9 -1.2111 0.043049 -0.030556
29.712 33.9332943 -84.5390233 331.7 -1.2143 0.042657 -0.031754
30.116 33.9332945 -84.5390237 331.6 -1.2095 0.043799 -0.03053
30.715 33.9332945 -84.539024 331.5 -1.209 0.043825 -0.030335
31.113 33.9332945 -84.5390242 331.4 -1.1904 0.02857 -0.0048414
31.714 33.9332953 -84.5390256 331.4 -1.2044 -0.01573 0.03804
32.115 33.9332955 -84.5390267 331.7 -1.2139 -0.028059 0.13173
32.715 33.9332959 -84.5390277 332.2 -1.2096 0.024753 0.087843
33.117 33.9332986 -84.5390268 332.3 -1.2002 0.16468 0.14204
33.718 33.9333016 -84.5390261 333 -1.2155 -0.18061 0.027404
34.122 33.9333024 -84.5390272 333.6 -1.2123 -0.052837 0.10138
34.722 33.9333033 -84.5390278 334.4 -1.2125 -0.049258 0.12156
35.12 33.9333036 -84.5390282 334.9 -1.2129 -0.053628 0.11022
35.727 33.9333034 -84.5390282 335.8 -1.2138 -0.042149 0.11207
36.129 33.9333034 -84.5390287 336.5 -1.2124 -0.021944 0.097666
36.736 33.9333037 -84.5390289 336.8 -1.2122 -0.047827 0.10949
37.142 33.9333036 -84.5390289 336.9 -1.2116 -0.040809 0.10553
37.744 33.9333036 -84.5390289 336.8 -1.2139 -0.03234 0.11983
38.143 33.9333034 -84.5390287 336.8 -1.2157 -0.035668 0.10545
38.744 33.9333026 -84.5390273 336.9 -1.2192 -0.092239 0.21416
39.146 33.9333004 -84.5390243 336.9 -1.2124 -0.081799 0.28452
39.748 33.933294 -84.5390149 337.6 -1.1845 -0.021257 0.21299
40.152 33.9332902 -84.5390085 337.7 -1.1663 -0.018581 0.10881
40.753 33.9332851 -84.5389998 338.5 -1.1435 -0.055222 0.16753
41.155 33.9332813 -84.5389936 338.8 -1.1249 -0.06239 0.13791
41.755 33.9332771 -84.5389872 339.4 -1.0995 0.019911 -0.02327
42.155 33.9332761 -84.538985 339.6 -1.0814 0.0024056 -0.049806
45.859 33.933276 -84.5389846 340.4 -1.0429 -0.017626 0.12798
45.859 33.933276 -84.5389844 340.3 -1.0424 -0.0033723 0.12357
46.164 33.9332753 -84.538985 340.4 -1.0436 -0.082234 0.076418
46.768 33.9332732 -84.5389895 340.6 -0.99469 -0.18974 0.0082282
47.169 33.9332704 -84.5389955 340.6 -0.93522 -0.21153 0.014714
47.769 33.9332652 -84.5390074 340.6 -0.83683 -0.052022 0.084143
48.173 33.9332616 -84.539015 340.5 -0.76811 -0.046327 0.087836
48.777 33.9332559 -84.539027 340.4 -0.66348 -0.03834 0.087361
49.178 33.9332529 -84.5390344 340.4 -0.58893 0.087407 0.1091
49.78 33.9332499 -84.5390407 340.4 -0.47942 0.2196 0.10251
50.179 33.9332491 -84.5390414 340.4 -0.41711 0.20443 0.093601
53.635 33.9332481 -84.5390424 340.7 -0.31906 0.076489 0.10271
53.788 33.9332481 -84.5390428 340.7 -0.31933 0.059624 0.08901
54.188 33.9332476 -84.5390452 340.7 -0.31539 -0.09415 0.087862
54.791 33.9332463 -84.5390531 340.7 -0.27416 -0.13731 0.11363
55.191 33.9332447 -84.539062 340.8 -0.22725 -0.091628 0.1269
55.793 33.9332418 -84.5390748 341.1 -0.15558 0.043735 0.10809
56.195 33.9332398 -84.5390828 341.3 -0.11224 0.045269 0.099878
56.795 33.9332369 -84.539094 341.5 -0.04472 0.11022 0.081445
57.194 33.9332354 -84.5390992 341.5 -0.0011923 0.22392 0.049004
57.797 33.9332339 -84.5391015 341.8 0.063778 0.23803 0.025984
61.326 33.9332324 -84.5391014 341.9 0.13478 0.10084 0.074329
61.326 33.9332323 -84.5391015 342 0.13816 0.094565 0.07915
61.811 33.9332329 -84.5391006 342 0.11435 0.18349 -0.054193
62.21 33.9332349 -84.5390977 342.2 0.047151 0.22098 -0.094634
62.813 33.9332394 -84.5390911 342.3 -0.070595 0.097032 0.034989
63.214 33.9332424 -84.5390872 342.4 -0.16915 0.06275 0.061225
63.815 33.9332456 -84.5390839 342.4 -0.31729 -0.082288 0.1468
67.514 33.9332462 -84.5390839 342.4 -0.41184 -0.035642 0.13148
67.514 33.9332461 -84.539084 342.6 -0.41184 -0.035642 0.13148
67.514 33.9332459 -84.5390839 342.7 -0.51381 0.056324 0.089324
67.824 33.9332452 -84.5390843 342.8 -0.52067 -0.04797 0.12165
68.227 33.9332435 -84.5390866 342.8 -0.54248 -0.14591 0.14675
68.829 33.9332379 -84.5390938 342.9 -0.58562 -0.13599 0.1495
69.238 33.9332329 -84.5391 342.9 -0.61039 -0.020587 0.12128
69.834 33.9332248 -84.5391094 342.9 -0.65955 0.038008 0.11615
70.234 33.9332195 -84.5391151 342.9 -0.6972 0.0043933 0.09177
70.835 33.9332133 -84.5391215 343 -0.74343 0.14589 0.076225
71.236 33.9332113 -84.5391233 343.1 -0.77957 0.16458 0.074478
75.04 33.93321 -84.5391233 343.3 -0.83612 0.10066 0.046009
75.04 33.9332086 -84.539124 343.5 -0.83612 0.10066 0.046009
75.041 33.9332083 -84.5391245 343.4 -0.86878 0.059775 0.097345
75.245 33.9332079 -84.5391248 343.4 -0.87141 -0.0066828 0.083672
75.845 33.9332055 -84.5391292 343.3 -0.85181 -0.16002 0.021185
76.248 33.9332025 -84.5391354 343.4 -0.8218 -0.16965 0.022888
76.849 33.9331965 -84.5391478 343.4 -0.76813 -0.057534 0.064481
77.251 33.9331923 -84.5391568 343.3 -0.72912 -0.00074359 0.084472
77.851 33.9331858 -84.5391697 343.3 -0.67605 -0.021252 0.082401
78.252 33.9331812 -84.5391784 343.2 -0.64236 -0.0035571 0.077434
78.856 33.9331754 -84.5391893 343.1 -0.58086 0.14927 0.072965
79.254 33.9331732 -84.5391935 343.1 -0.54469 0.22728 0.064511
79.855 33.9331719 -84.5391952 343.1 -0.48916 0.18995 0.066312
83.247 33.9331702 -84.5391974 342.6 -0.44257 0.11544 0.068213
83.263 33.9331702 -84.5391975 342.6 -0.4448 0.077538 0.064208
83.865 33.9331694 -84.5392 342.5 -0.4346 -0.095897 0.06505
84.265 33.9331679 -84.539205 342.6 -0.40602 -0.14544 0.071261
84.87 33.9331645 -84.5392184 342.7 -0.34019 -0.09604 0.094593
85.268 33.9331619 -84.5392278 342.7 -0.28625 0.042893 0.094924
85.875 33.9331578 -84.5392414 342.9 -0.21726 0.019876 0.088568
86.276 33.9331545 -84.5392499 343 -0.17347 0.032717 0.083204
86.874 33.9331499 -84.539262 343.1 -0.10072 0.083437 0.048831
87.278 33.9331474 -84.5392672 343.2 -0.057333 0.20653 -0.0046806
87.883 33.9331456 -84.5392699 343.1 0.012417 0.21983 -0.016395
91.455 33.9331448 -84.5392703 342.5 0.098457 0.098722 0.06831
91.455 33.933145 -84.5392701 342.4 0.098253 0.071952 0.081715
91.896 33.9331457 -84.5392711 342.4 0.10537 -0.04112 -0.014038
92.299 33.9331484 -84.5392744 342.3 0.15413 -0.10914 -0.059283
92.904 33.9331568 -84.5392831 342.2 0.26617 -0.094302 -0.033621
93.307 33.9331632 -84.5392911 342.1 0.348 0.0011525 0.025291
93.909 33.9331723 -84.5393018 342.1 0.48311 0.043017 0.022891
94.311 33.9331782 -84.5393086 342.1 0.5728 0.011843 0.032601
94.913 33.9331876 -84.5393187 342.2 0.70043 0.02443 0.050713
95.314 33.9331937 -84.5393255 342.2 0.7936 0.088689 0.06362
95.915 33.9332005 -84.5393336 342.3 0.9251 0.25375 0.016101
96.318 33.9332018 -84.5393367 342.3 1.0017 0.30587 -0.040843
100.08 33.933201 -84.5393395 341.7 1.1328 0.16389 -0.070191
100.08 33.9332011 -84.5393392 341.7 1.2008 0.09794 -0.012842
100.32 33.9332016 -84.5393391 341.6 1.2001 0.025844 -0.053835
100.92 33.9332057 -84.5393378 341.6 1.2401 -0.10711 -0.12672
101.33 33.9332115 -84.5393357 341.8 1.2916 -0.12138 -0.11288
101.93 33.9332235 -84.5393318 341.8 1.3707 -0.0072306 -0.026922
102.33 33.9332315 -84.5393298 341.8 1.4259 0.018803 -0.024219
102.93 33.9332444 -84.5393266 341.7 1.5163 0.023879 -0.03577
103.33 33.9332521 -84.5393247 341.7 1.5719 0.014623 -0.043864
103.93 33.933263 -84.5393221 341.6 1.6567 0.12818 -0.034184
104.33 33.9332676 -84.5393214 341.5 1.7138 0.21554 -0.040104
104.94 33.9332698 -84.5393218 341.5 1.8031 0.18344 -0.079214
108.4 33.93327 -84.5393222 341.7 1.8933 0.056667 -0.05784
108.4 33.9332698 -84.5393221 341.7 1.8944 0.054861 -0.05464
108.95 33.9332715 -84.5393228 341.7 1.8781 -0.053132 0.042843
109.35 33.9332747 -84.5393243 341.8 1.8355 -0.10104 0.064226
109.96 33.9332821 -84.539328 341.9 1.7526 -0.019603 -0.0041551
110.36 33.9332876 -84.5393307 341.7 1.6899 0.0094269 -0.023281
110.96 33.9332954 -84.5393344 341.7 1.5961 0.066816 -0.054897
111.36 33.9332994 -84.5393363 341.6 1.5267 0.19641 -0.096345
111.96 33.9333008 -84.5393374 341.6 1.4335 0.20073 -0.086489
115.33 33.9333013 -84.5393373 341.3 1.3593 0.097649 -0.029783
115.37 33.9333013 -84.5393373 341.2 1.3594 0.11532 -0.022461
118.88 33.9332997 -84.5393369 340.8 1.2282 0.07569 -0.019086
118.98 33.9332998 -84.539337 340.9 1.23 0.066343 -0.014226
119.38 33.933301 -84.539338 340.9 1.2289 -0.075118 0.031054
119.99 33.9333063 -84.5393431 341 1.2452 -0.16474 0.06478
120.39 33.9333127 -84.539349 341 1.2689 -0.12861 0.073215
120.99 33.9333236 -84.5393593 341.1 1.3131 0.048997 0.02018
121.39 33.93333 -84.5393663 341 1.3354 0.035605 0.017712
121.99 33.93334 -84.5393769 341.1 1.3671 0.014434 0.021167
122.39 33.9333459 -84.5393838 341.1 1.3899 0.030818 0.0085979
122.99 33.933354 -84.5393931 341.2 1.4188 0.15377 -0.073574
123.39 33.9333573 -84.5393973 341.2 1.4327 0.21245 -0.12944
124 33.9333579 -84.5393993 341.2 1.4689 0.16544 -0.12295
127.41 33.9333587 -84.5393998 340.9 1.5093 0.067488 -0.02356
127.41 33.9333588 -84.5393999 340.8 1.5106 0.064772 -0.031195
128.01 33.933361 -84.5393993 340.9 1.5288 -0.12822 -0.12319
128.41 33.9333654 -84.5393969 340.9 1.5578 -0.20124 -0.13438
129.01 33.9333769 -84.5393912 341 1.6045 -0.21895 -0.096655
129.41 33.9333865 -84.5393871 341 1.6323 -0.067655 -0.069236
130.02 33.9334006 -84.5393812 341.1 1.6889 -0.022239 -0.076699
130.42 33.93341 -84.5393769 341.3 1.7284 -0.057041 -0.07967
131.02 33.9334239 -84.5393704 341.3 1.7848 -0.03289 -0.065921
131.42 33.9334332 -84.5393661 341.3 1.8241 -0.050889 -0.061329
132.02 33.9334452 -84.5393607 341.2 1.8747 0.17048 -0.040313
132.42 33.9334497 -84.5393588 341.2 1.9098 0.19573 -0.030666
133.02 33.933452 -84.5393583 341.1 1.9673 0.18195 -0.069002
136.48 33.9334532 -84.539358 341.1 2.0305 0.010978 -0.040854
136.48 33.9334534 -84.5393581 341 2.0316 0.022192 -0.034645
137.03 33.9334544 -84.5393567 341.2 2.044 -0.11159 -0.079535
137.43 33.933458 -84.5393536 341.4 2.0721 -0.21359 -0.095718
138.03 33.9334666 -84.5393448 341.5 2.1244 -0.20883 -0.095413
138.43 33.9334738 -84.5393371 341.6 2.157 -0.12371 -0.084755
139.04 33.9334844 -84.5393259 341.7 2.2098 -0.083353 -0.057297
139.44 33.9334919 -84.5393184 341.8 2.2496 -0.051479 -0.077883
140.04 33.933503 -84.5393071 341.8 2.3064 -0.062517 -0.082306
140.44 33.9335103 -84.5392994 341.9 2.3442 -0.053176 -0.067354
141.04 33.93352 -84.5392893 341.9 2.3994 0.094664 -0.062829
141.45 33.9335242 -84.539285 341.9 2.4325 0.16942 -0.076551
142.04 33.9335266 -84.5392826 341.9 2.4874 0.17888 -0.09506
145.61 33.9335269 -84.5392822 342 2.5311 0.091913 -0.089707
145.61 33.9335276 -84.5392813 341.9 2.5651 0.015712 -0.036931
145.61 33.9335276 -84.5392814 341.9 2.5644 0.015946 -0.041536
146.05 33.9335277 -84.53928 341.9 2.5762 -0.089548 -0.1425
146.46 33.9335277 -84.5392761 341.9 2.6101 -0.16096 -0.20639
147.06 33.9335266 -84.5392634 341.9 2.6673 -0.11003 -0.21207
147.47 33.9335255 -84.5392524 341.9 2.6988 -0.045291 -0.134
148.07 33.933523 -84.5392365 341.9 2.7676 -0.020947 -0.069121
148.47 33.9335211 -84.5392256 342 2.8169 0.0033983 -0.082348
149.07 33.9335185 -84.5392098 342 2.8849 0.032917 -0.046011
149.48 33.9335168 -84.5392 342 2.9333 0.080086 -0.0018126
150.07 33.9335147 -84.539191 341.9 3.0064 0.21615 0.027772
150.48 33.9335138 -84.5391897 341.8 3.0585 0.21466 0.018025
154.11 33.9335124 -84.5391891 342.2 -3.1369 -0.0055805 -0.014939
154.11 33.9335124 -84.539189 342.5 -3.1341 -0.015451 -0.02509
154.49 33.9335132 -84.5391916 342.6 3.14 0.15985 0.068636
157.93 33.9335145 -84.5391934 343 3.0184 -0.0050845 -0.060763
158.1 33.9335145 -84.5391931 343.1 3.0222 -0.053216 -0.044879
158.5 33.9335147 -84.5391913 343.2 3.0009 -0.16717 -0.031815
159.11 33.9335164 -84.5391839 343.4 2.9085 -0.20057 -0.054422
159.51 33.9335181 -84.5391758 343.5 2.8221 -0.059859 -0.056126
160.11 33.9335204 -84.5391662 343.5 2.6926 -0.021434 -0.075307
160.51 33.9335211 -84.5391595 343.4 2.609 -6.2547e-05 -0.047873
161.12 33.9335219 -84.5391539 343.4 2.479 0.13875 0.015679
161.52 33.9335211 -84.5391529 343.4 2.3961 0.10515 0.032462
164.92 33.9335206 -84.539152 343.1 2.3532 0.056668 0.018697
164.92 33.9335207 -84.5391519 343.1 2.2851 0.030791 -0.040711
165.13 33.9335209 -84.5391519 343 2.2876 -0.012375 -0.054928
165.53 33.9335222 -84.5391502 343 2.3002 -0.14695 -0.063997
166.14 33.9335272 -84.5391439 343 2.3508 -0.23275 -0.059333
166.54 33.9335328 -84.5391364 343 2.3888 -0.18164 -0.051206
167.14 33.9335417 -84.5391249 343 2.447 -0.032469 -0.044007
167.54 33.9335475 -84.5391178 343.1 2.4916 -0.039343 -0.060923
168.15 33.9335559 -84.5391068 343.2 2.5534 -0.047323 -0.062594
168.54 33.9335613 -84.5391005 343.2 2.6002 0.014457 -0.079724
169.15 33.9335662 -84.5390937 343.3 2.6545 0.13308 -0.089438
169.55 33.9335674 -84.5390932 343.4 2.6928 0.14739 -0.11295
173.23 33.9335671 -84.5390926 343.1 2.7878 0.011488 -0.044787
173.23 33.9335673 -84.5390927 343 2.787 -0.0081374 -0.030435
173.56 33.9335672 -84.5390923 343 2.7995 -0.10955 -0.099188
174.17 33.9335663 -84.5390865 343 2.8759 -0.23409 -0.16769
174.57 33.9335652 -84.5390786 343.1 2.9542 -0.24363 -0.16645
175.18 33.9335628 -84.5390609 343.2 3.0664 -0.057783 -0.10373
175.58 33.9335608 -84.5390503 343.4 -3.1295 -0.022456 -0.096723
176.31 33.9335568 -84.5390351 343.5 -2.9937 -0.091088 -0.056403
176.58 33.9335541 -84.539025 343.6 -2.9066 -0.082442 -0.038515
177.18 33.9335498 -84.5390098 343.6 -2.773 -0.0058639 -0.0020324
177.58 33.9335477 -84.5390035 343.5 -2.6966 0.14712 -0.0042859
178.19 33.9335464 -84.5389998 342.9 -2.5635 0.10925 0.01887
181.83 33.9335466 -84.5389999 342.6 -2.4735 0.032112 -0.040298
181.83 33.9335478 -84.5390002 344 -2.3914 -0.041237 -0.013966
181.83 33.933548 -84.5390009 344 -2.3844 -0.042328 0.0078757
182.19 33.9335478 -84.5390012 344.1 -2.382 -0.12245 -0.081488
182.59 33.9335455 -84.5390005 344 -2.3459 -0.23416 -0.15585
183.2 33.9335369 -84.5389976 344.1 -2.2829 -0.23955 -0.16832
183.6 33.9335286 -84.5389956 344.3 -2.2406 -0.13139 -0.11848
184.2 33.9335158 -84.5389918 344.5 -2.1738 -0.064223 -0.080235
184.6 33.9335075 -84.5389901 344.5 -2.1227 -0.042963 -0.069771
185.2 33.9334954 -84.5389886 344.4 -2.0468 -0.028185 -0.051296
185.6 33.9334885 -84.5389883 344.3 -2.0032 -0.011055 0.012923
186.2 33.9334816 -84.538988 343.9 -1.9256 0.14362 0.023952
186.6 33.9334807 -84.5389884 343.8 -1.8803 0.12534 0.0062999
190.18 33.9334821 -84.5389908 344.2 -1.7943 -0.029245 -0.062167
190.21 33.9334825 -84.5389911 344 -1.7911 -0.03195 -0.050995
190.61 33.9334816 -84.5389911 344 -1.7842 -0.11803 -0.083693
191.22 33.933476 -84.5389912 343.8 -1.7383 -0.23924 -0.11264
191.62 33.9334689 -84.5389917 343.7 -1.7007 -0.23048 -0.10149
192.22 33.9334567 -84.5389922 343.4 -1.6446 -0.09184 -0.066832
192.62 33.9334486 -84.5389929 343.2 -1.5989 -0.10784 -0.073559
193.23 33.9334368 -84.5389939 342.8 -1.537 -0.1315 -0.060121
193.63 33.9334285 -84.5389943 342.6 -1.4942 -0.12493 -0.06571
194.23 33.9334167 -84.5389954 342.3 -1.4387 0.079714 -0.048012
194.63 33.9334126 -84.5389963 342 -1.3928 0.19421 -0.039062
195.23 33.9334115 -84.5389974 341.7 -1.3289 0.047117 0.037919
198.59 33.9334136 -84.5389984 342.2 -1.2675 -0.17471 0.0023622
198.65 33.9334142 -84.5389984 342.2 -1.2627 -0.16581 -0.004285
199.25 33.9334128 -84.5389988 342.1 -1.2684 -0.38386 -0.011682
199.65 33.9334092 -84.5389995 342.2 -1.2797 -0.41485 -0.010883
200.25 33.9333987 -84.539002 342 -1.3036 -0.28688 -0.039331
200.65 33.933391 -84.5390038 341.9 -1.3245 -0.17043 -0.039629
201.26 33.9333804 -84.5390064 341.8 -1.3581 -0.16214 -0.031889
201.66 33.9333737 -84.5390077 341.8 -1.38 -0.14588 -0.028703
202.26 33.933367 -84.539009 341.7 -1.4136 0.048559 -0.052782
202.66 33.9333657 -84.5390092 341.6 -1.4369 0.07603 -0.053669
206.29 33.9333665 -84.5390089 341.7 -1.4734 -0.08913 -0.029785
206.29 33.9333668 -84.5390088 341.6 -1.4745 -0.090136 -0.030716
206.67 33.9333676 -84.5390083 341.6 -1.4864 0.017077 -0.0018272
207.27 33.9333723 -84.5390061 341.6 -1.5723 0.087823 -0.030315
207.67 33.9333768 -84.5390041 341.6 -1.6762 -0.044046 -0.058267
208.27 33.9333825 -84.5390012 341.8 -1.8337 -0.064985 -0.11652
208.67 33.933384 -84.5390001 341.8 -1.9437 -0.1262 -0.17012
212.4 33.9333855 -84.5389994 342.2 -2.1078 -0.068905 -0.11166
212.4 33.9333857 -84.5389996 342.3 -2.1907 -0.05921 -0.063559
212.68 33.9333853 -84.5389993 342.4 -2.1848 -0.11561 -0.090371
213.28 33.9333812 -84.5389978 342.5 -2.1547 -0.26115 -0.15119
213.68 33.9333755 -84.5389955 342.5 -2.1309 -0.24177 -0.19357
214.28 33.9333633 -84.5389918 342.5 -2.1157 -0.043255 -0.12314
214.71 33.9333558 -84.5389901 342.5 -2.0906 -0.040509 -0.093582
215.29 33.9333449 -84.5389878 342.6 -2.0513 -0.050138 -0.092505
215.69 33.933338 -84.5389862 342.6 -2.0311 -0.025061 -0.064719
216.29 33.9333315 -84.5389844 342.5 -2.0105 0.17022 -0.092467
216.69 33.9333302 -84.5389848 342.4 -1.9777 0.13289 -0.044411
220.28 33.9333308 -84.5389852 341.9 -1.9158 -0.073987 -0.10522
220.3 33.9333308 -84.5389853 341.9 -1.9185 -0.095488 -0.064573
220.7 33.93333 -84.5389852 341.9 -1.901 -0.21668 -0.12992
221.31 33.9333248 -84.538985 341.8 -1.819 -0.32529 -0.15498
221.7 33.9333176 -84.5389847 341.7 -1.7562 -0.29414 -0.1349
222.31 33.9333057 -84.5389847 341.7 -1.6519 -0.14607 -0.06846
222.71 33.9332982 -84.538985 341.7 -1.5781 -0.13738 -0.062542
223.31 33.933288 -84.5389856 341.8 -1.4656 -0.17235 -0.017354
223.71 33.9332814 -84.5389863 341.8 -1.3928 -0.068736 -0.0066906
224.32 33.9332761 -84.5389867 342.2 -1.2836 0.079833 -0.012141
224.72 33.9332754 -84.5389875 342.4 -1.2135 0.022465 0.027007
228.09 33.9332742 -84.5389874 342.1 -1.1759 -0.018708 0.036094
228.09 33.9332741 -84.5389876 342 -1.1144 -0.054221 0.10363
228.33 33.9332737 -84.5389878 342 -1.1162 -0.11249 0.063601
228.73 33.9332727 -84.5389895 342 -1.0891 -0.21393 -0.017832
229.34 33.9332683 -84.538998 341.8 -1.0017 -0.2288 -0.028896
229.73 33.9332648 -84.5390064 341.7 -0.93204 -0.092915 0.048416
230.34 33.9332601 -84.5390179 341.6 -0.82309 -0.052228 0.10913
230.74 33.9332567 -84.5390253 341.4 -0.74338 -0.050491 0.11353
231.34 33.933252 -84.5390346 341.4 -0.62469 0.050721 0.099074
231.74 33.93325 -84.5390381 341.4 -0.54348 0.12415 0.090179
232.35 33.9332485 -84.5390391 341.5 -0.43016 0.1616 0.037012
235.73 33.9332486 -84.5390383 340.6 -0.33597 0.0010851 0.099343
235.75 33.9332478 -84.5390382 340.2 -0.33576 0.018251 0.08177
236.76 33.9332469 -84.539039 339.2 -0.33676 0.034621 0.095486
237.36 33.9332466 -84.5390391 338.6 -0.33218 0.031861 0.083932
237.76 33.9332467 -84.5390389 338.1 -0.33056 0.033023 0.079319
238.37 33.9332455 -84.5390388 337.5 -0.32886 0.033969 0.030701
238.77 33.9332448 -84.5390394 337.2 -0.33149 0.060455 0.036871
239.37 33.9332444 -84.5390398 336.4 -0.33437 0.036971 0.065892
239.77 33.9332447 -84.5390402 335.9 -0.33254 0.040094 0.076834
240.37 33.9332449 -84.5390412 335.1 -0.33217 0.06926 0.089858
240.77 33.9332456 -84.5390415 334.6 -0.3464 0.0096592 -0.052073
241.38 33.9332443 -84.5390385 334.7 -0.35332 0.0093971 -0.045878
241.77 33.9332442 -84.539038 334.8 -0.3594 0.0086448 -0.044025
242.37 33.9332438 -84.5390372 334.8 -0.36927 0.0081605 -0.043679
242.77 33.9332433 -84.5390362 334.8 -0.37422 0.0083919 -0.043831
243.38 33.9332423 -84.5390348 334.7 -0.38092 0.0081169 -0.043862
243.78 33.9332418 -84.5390342 334.7 -0.38396 0.0082217 -0.043736
244.39 33.9332412 -84.5390333 334.7 -0.38968 0.0083391 -0.043859
244.78 33.9332405 -84.5390323 334.7 -0.39195 0.008345 -0.043722
245.39 33.93324 -84.5390315 334.7 -0.39667 0.008411 -0.04408
245.78 33.9332395 -84.5390308 334.7 -0.39976 0.0081885 -0.043789
246.39 33.9332387 -84.5390297 334.7 -0.40194 0.00836 -0.043709
246.78 33.9332382 -84.5390288 334.7 -0.40321 0.0083498 -0.043529
247.39 33.9332377 -84.5390282 334.8 -0.40392 0.0084677 -0.043629
247.79 33.9332372 -84.5390272 334.9 -0.40437 0.0085213 -0.043624
248.39 33.9332368 -84.5390267 335 -0.4065 0.0083168 -0.04384
248.79 33.9332365 -84.5390262 335.1 -0.40662 0.0081395 -0.043738
249.4 33.9332355 -84.5390252 335.2 -0.4064 0.0082102 -0.043773
249.8 33.9332348 -84.5390243 335.3 -0.40806 0.0080879 -0.043912
250.55 33.933234 -84.5390233 335.3 -0.40909 0.0080679 -0.04372
250.8 33.9332337 -84.5390232 335.4 -0.40921 0.0079387 -0.043772
251.4 33.9332335 -84.539023 335.5 -0.40983 0.008398 -0.04381
251.8 33.9332332 -84.5390228 335.5 -0.40983 0.0083953 -0.043689
252.4 33.9332322 -84.5390218 335.5 -0.41135 0.0084092 -0.043861
252.8 33.9332317 -84.5390213 335.5 -0.41131 0.0083409 -0.043936
253.41 33.9332312 -84.5390207 335.5 -0.41182 0.0082275 -0.04341
253.81 33.9332307 -84.5390202 335.5 -0.41225 0.0081349 -0.043451
254.41 33.9332303 -84.5390193 335.4 -0.41198 0.0082476 -0.04358
254.81 33.9332302 -84.5390188 335.4 -0.41 0.0080999 -0.043335
255.41 33.93323 -84.5390182 335.4 -0.41022 0.0081217 -0.043567
255.81 33.9332302 -84.539018 335.4 -0.40965 0.0083173 -0.043584
256.42 33.9332303 -84.5390177 335.4 -0.40952 0.0083568 -0.043794
256.81 33.9332302 -84.5390173 335.4 -0.41029 0.0084692 -0.043805
257.42 33.9332302 -84.5390167 335.4 -0.41147 0.0083126 -0.043737
257.82 33.9332305 -84.5390165 335.4 -0.41188 0.0083114 -0.043451
258.42 33.9332307 -84.539016 335.4 -0.41194 0.0082413 -0.043797
258.82 33.9332308 -84.539016 335.3 -0.41253 0.0083892 -0.044013
259.42 33.9332307 -84.5390157 335.3 -0.41146 0.0081701 -0.043771
259.82 33.9332305 -84.5390153 335.3 -0.41221 0.008178 -0.044063
260.43 33.9332305 -84.5390153 335.3 -0.41273 0.0081894 -0.043962
260.83 33.9332305 -84.5390152 335.3 -0.41348 0.0080862 -0.043847
261.43 33.9332305 -84.5390153 335.2 -0.41328 0.0081775 -0.044111
261.83 33.9332303 -84.5390153 335.3 -0.41298 0.0083397 -0.043731
262.43 33.93323 -84.5390152 335.3 -0.41409 0.0082591 -0.043781
262.83 33.9332298 -84.539015 335.4 -0.4149 0.0083113 -0.043875
263.44 33.9332298 -84.539015 335.4 -0.4136 0.0081703 -0.04367
263.83 33.93323 -84.539015 335.3 -0.41293 0.0079925 -0.043851
264.43 33.9332297 -84.5390148 335.3 -0.41338 0.008029 -0.043636
264.83 33.9332297 -84.5390148 335.3 -0.41328 0.0081141 -0.043621
265.43 33.9332298 -84.5390148 335.3 -0.41323 0.0084406 -0.043906
265.83 33.9332302 -84.5390152 335.3 -0.41262 0.0083172 -0.043727
